{
"type": "FeatureCollection",
"name": "a2-hospitals",
"crs": { "type": "name", "properties": { "name": "urn:ogc:def:crs:OGC:1.3:CRS84" } },
"features": [
{ "type": "Feature", "properties": { "OBJECTID": 1836, "ID": "0014248106", "NAME": "ST JOSEPH MERCY HOSPITAL", "ADDRESS": "5301 E HURON RIVER DR", "CITY": "ANN ARBOR", "STATE": "MI", "ZIP": "48106", "ZIP4": "NOT AVAILABLE", "TELEPHONE": "NOT AVAILABLE", "TYPE": "GENERAL ACUTE CARE", "STATUS": "OPEN", "POPULATION": 513, "COUNTY": "WASHTENAW", "COUNTYFIPS": "26161", "COUNTRY": "USA", "LATITUDE": 42.265188033000072, "LONGITUDE": -83.654329952999944, "NAICS_CODE": "622110", "NAICS_DESC": "GENERAL MEDICAL AND SURGICAL HOSPITALS", "SOURCE": "https:\/\/w2.lara.state.mi.us\/val\/license\/search", "SOURCEDATE": "2020\/08\/09", "VAL_METHOD": "IMAGERY", "VAL_DATE": "2014\/03\/12", "WEBSITE": "http:\/\/www.stjoesannarbor.org\/maple", "STATE_ID": "NOT AVAILABLE", "ALT_NAME": "NOT AVAILABLE", "ST_FIPS": "26", "OWNER": "NON-PROFIT", "TTL_STAFF": -999, "BEDS": 513.0, "TRAUMA": "LEVEL II", "HELIPAD": "Y" }, "geometry": { "type": "Point", "coordinates": [ -83.654329952999944, 42.265188033000072 ] } },
{ "type": "Feature", "properties": { "OBJECTID": 3511, "ID": "0014448109", "NAME": "UNIVERSITY OF MICHIGAN HEALTH SYSTEM", "ADDRESS": "1500 E MEDICAL CENTER DRIVE, SPC 5474", "CITY": "ANN ARBOR", "STATE": "MI", "ZIP": "48109", "ZIP4": "NOT AVAILABLE", "TELEPHONE": "NOT AVAILABLE", "TYPE": "GENERAL ACUTE CARE", "STATUS": "OPEN", "POPULATION": 1000, "COUNTY": "WASHTENAW", "COUNTYFIPS": "26161", "COUNTRY": "USA", "LATITUDE": 42.283191747000046, "LONGITUDE": -83.728707795999981, "NAICS_CODE": "622110", "NAICS_DESC": "GENERAL MEDICAL AND SURGICAL HOSPITALS", "SOURCE": "https:\/\/w2.lara.state.mi.us\/val\/license\/search", "SOURCEDATE": "2020\/08\/09", "VAL_METHOD": "IMAGERY\/OTHER", "VAL_DATE": "2014\/03\/12", "WEBSITE": "http:\/\/www.med.umich.edu", "STATE_ID": "NOT AVAILABLE", "ALT_NAME": "NOT AVAILABLE", "ST_FIPS": "26", "OWNER": "NON-PROFIT", "TTL_STAFF": -999, "BEDS": 1000.0, "TRAUMA": "LEVEL I", "HELIPAD": "Y" }, "geometry": { "type": "Point", "coordinates": [ -83.728707795999981, 42.283191747000046 ] } },
{ "type": "Feature", "properties": { "OBJECTID": 4781, "ID": "0007448105", "NAME": "VA ANN ARBOR HEALTHCARE SYSTEM", "ADDRESS": "2215 FULLER RD", "CITY": "ANN ARBOR", "STATE": "MI", "ZIP": "48105", "ZIP4": "NOT AVAILABLE", "TELEPHONE": "(800) 361-8387", "TYPE": "MILITARY", "STATUS": "OPEN", "POPULATION": 102, "COUNTY": "WASHTENAW", "COUNTYFIPS": "26161", "COUNTRY": "USA", "LATITUDE": 42.286693323000065, "LONGITUDE": -83.714640593999945, "NAICS_CODE": "622110", "NAICS_DESC": "GENERAL MEDICAL AND SURGICAL HOSPITALS", "SOURCE": "https:\/\/www.va.gov\/directory\/guide\/allstate.asp", "SOURCEDATE": "2020\/09\/25", "VAL_METHOD": "IMAGERY\/OTHER", "VAL_DATE": "2015\/05\/22", "WEBSITE": "http:\/\/www.annarbor.va.gov\/", "STATE_ID": "NOT AVAILABLE", "ALT_NAME": "NOT AVAILABLE", "ST_FIPS": "26", "OWNER": "GOVERNMENT - FEDERAL", "TTL_STAFF": -999, "BEDS": 102.0, "TRAUMA": "NOT AVAILABLE", "HELIPAD": "N" }, "geometry": { "type": "Point", "coordinates": [ -83.714640593999945, 42.286693323000065 ] } }
]
}
